[{"name": "Bangladesh", "importance": 0.6949816664723159, "country": "Bangladesh", "alt_names": [], "longitude": "90.356331", "country_code": "BD", "latitude": "23.684994", "resolution": "COUNTRY", "id": 4263794140}, {"name": "Brunei Darussalam", "importance": 0.5516606873074634, "country": "Brunei Darussalam", "alt_names": ["Brunei"], "longitude": "114.727669", "country_code": "BN", "latitude": "4.535277", "resolution": "COUNTRY", "id": 4263794141}, {"name": "Bouvet Island", "importance": 0.5775258809311365, "country": "Bouvet Island", "alt_names": [], "longitude": "3.413194", "country_code": "BV", "latitude": "-54.423199", "resolution": "COUNTRY", "id": 4263794142}, {"name": "Caribbean Netherlands", "country_code": "BQ", "importance": 0.6557424491886944, "country": "Caribbean Netherlands", "resolution": "COUNTRY", "alt_names": [], "id": 4263794143}, {"name": "Belarus", "importance": 0.6821885108641561, "country": "Belarus", "alt_names": [], "longitude": "27.953389", "country_code": "BY", "latitude": "53.709807", "resolution": "COUNTRY", "id": 4263794144}, {"name": "Reunion", "importance": 0.766221405068676, "country": "Reunion", "alt_names": [], "longitude": "55.536384", "country_code": "RE", "latitude": "-21.115141", "resolution": "COUNTRY", "id": 4263794145}, {"name": "Guam", "importance": 0.7684948644343497, "country": "Guam", "alt_names": [], "longitude": "144.793731", "country_code": "GU", "latitude": "13.444304", "resolution": "COUNTRY", "id": 4263794146}, {"name": "Greece", "importance": 0.6718793886508918, "country": "Greece", "alt_names": [], "longitude": "21.824312", "country_code": "GR", "latitude": "39.074208", "resolution": "COUNTRY", "id": 4263794147}, {"name": "Guadeloupe", "importance": 0.7601006692724466, "country": "Guadeloupe", "alt_names": ["Guadalupe"], "longitude": "-62.067641", "country_code": "GP", "latitude": "16.995971", "resolution": "COUNTRY", "id": 4263794148}, {"name": "Guernsey", "importance": 0.65, "country": "Guernsey", "alt_names": [], "longitude": "-2.585278", "country_code": "GG", "latitude": "49.465691", "resolution": "COUNTRY", "id": 4263794149}, {"name": "French Guiana", "importance": 0.6809480993100363, "country": "French Guiana", "alt_names": ["Guf"], "longitude": "-53.125782", "country_code": "GF", "latitude": "3.933889", "resolution": "COUNTRY", "id": 4263794150}, {"name": "Heard Island And Maxdonald Islands", "importance": 0.5308341691972323, "country": "Heard Island And Maxdonald Islands", "alt_names": [], "longitude": "73.504158", "country_code": "HM", "latitude": "-53.08181", "resolution": "COUNTRY", "id": 4263794151}, {"name": "Puerto Rico", "importance": 0.7951335336225609, "country": "Puerto Rico", "alt_names": ["Borinquen", "Porto Rico"], "longitude": "-66.590149", "country_code": "PR", "latitude": "18.220833", "resolution": "COUNTRY", "id": 4263794152}, {"name": "Palestinian Territory", "importance": 0.6779940411361186, "country": "Palestinian Territory", "alt_names": ["Palestinian Territories"], "longitude": "35.233154", "country_code": "PS", "latitude": "31.952162", "resolution": "COUNTRY", "id": 4263794153}, {"name": "Svalbard And Jan Mayen", "importance": 0.7151694858749779, "country": "Svalbard And Jan Mayen", "alt_names": [], "longitude": "23.670272", "country_code": "SJ", "latitude": "77.553604", "resolution": "COUNTRY", "id": 4263794154}, {"name": "Latvia", "importance": 0.6627858356023999, "country": "Latvia", "alt_names": ["Latvian Republic"], "longitude": "24.603189", "country_code": "LV", "latitude": "56.879635", "resolution": "COUNTRY", "id": 4263794155}, {"name": "French Polynesia", "importance": 0.565342101560183, "country": "French Polynesia", "alt_names": [], "longitude": "-149.406843", "country_code": "PF", "latitude": "-17.679742", "resolution": "COUNTRY", "id": 4263794156}, {"name": "Western Sahara", "importance": 0.65, "country": "Western Sahara", "alt_names": [], "longitude": "-12.885834", "country_code": "EH", "latitude": "24.215527", "resolution": "COUNTRY", "id": 4263794157}, {"name": "Estonia", "importance": 0.7719722223575016, "country": "Estonia", "alt_names": [], "longitude": "25.013607", "country_code": "EE", "latitude": "58.595272", "resolution": "COUNTRY", "id": 4263794158}, {"name": "Albania", "importance": 0.6394784775475879, "country": "Albania", "alt_names": [], "longitude": "20.168331", "country_code": "AL", "latitude": "41.153332", "resolution": "COUNTRY", "id": 4263794159}, {"name": "Ethiopia", "importance": 0.65, "country": "Ethiopia", "alt_names": ["Ethiopian"], "longitude": "40.489673", "country_code": "ET", "latitude": "9.145", "resolution": "COUNTRY", "id": 4263794160}, {"name": "Martinique", "importance": 0.7642616973056157, "country": "Martinique", "alt_names": [], "longitude": "-61.024174", "country_code": "MQ", "latitude": "14.641528", "resolution": "COUNTRY", "id": 4263794161}, {"name": "Northern Mariana Islands", "importance": 0.6612972041895878, "country": "Northern Mariana Islands", "alt_names": [], "longitude": "145.38469", "country_code": "MP", "latitude": "17.33083", "resolution": "COUNTRY", "id": 4263794162}, {"name": "Micronesia", "importance": 0.65, "country": "Micronesia", "alt_names": [], "longitude": "150.550812", "country_code": "FM", "latitude": "7.425554", "resolution": "COUNTRY", "id": 4263794163}, {"name": "Vanuatu", "importance": 0.65, "country": "Vanuatu", "alt_names": [], "longitude": "166.959158", "country_code": "VU", "latitude": "-15.376706", "resolution": "COUNTRY", "id": 4263794164}, {"name": "New Caledonia", "importance": 0.6357756163212296, "country": "New Caledonia", "alt_names": [], "longitude": "165.618042", "country_code": "NC", "latitude": "-20.904305", "resolution": "COUNTRY", "id": 4263794165}, {"name": "Norfolk Island", "importance": 0.6336082190033157, "country": "Norfolk Island", "alt_names": [], "longitude": "167.954712", "country_code": "NF", "latitude": "-29.040835", "resolution": "COUNTRY", "id": 4263794166}, {"name": "Cocos (Keeling) Islands", "importance": 0.6164572486260239, "country": "Cocos (Keeling) Islands", "alt_names": ["Cocos Islands", "Cocos"], "longitude": "96.870956", "country_code": "CC", "latitude": "-12.164165", "resolution": "COUNTRY", "id": 4263794167}, {"name": "Republic Of The Congo", "importance": 0.6660922809206391, "country": "Republic Of The Congo", "alt_names": [], "longitude": "15.827659", "country_code": "CG", "latitude": "-0.228021", "resolution": "COUNTRY", "id": 4263794168}, {"name": "Democratic Republic Of The Congo", "importance": 0.7031668155138557, "country": "Democratic Republic Of The Congo", "alt_names": [], "longitude": "21.758664", "country_code": "CD", "latitude": "-4.038333", "resolution": "COUNTRY", "id": 4263794169}, {"name": "Christmas Island", "importance": 0.6245433077753514, "country": "Christmas Island", "alt_names": [], "longitude": "105.690449", "country_code": "CX", "latitude": "-10.447525", "resolution": "COUNTRY", "id": 4263794170}, {"name": "Macedonia", "importance": 0.7309471987105715, "country": "Macedonia", "alt_names": [], "longitude": "21.745275", "country_code": "MK", "latitude": "41.608635", "resolution": "COUNTRY", "id": 4263794171}, {"name": "Mayotte", "importance": 0.7394121687887969, "country": "Mayotte", "alt_names": ["Myt"], "longitude": "45.166244", "country_code": "YT", "latitude": "-12.8275", "resolution": "COUNTRY", "id": 4263794172}, {"name": "United States Virgin Islands", "importance": 0.6565887188657654, "country": "United States Virgin Islands", "alt_names": [], "longitude": "-64.896335", "country_code": "VI", "latitude": "18.335765", "resolution": "COUNTRY", "id": 4263794173}, {"name": "Iceland", "importance": 0.7231318935040293, "country": "Iceland", "alt_names": ["Island"], "longitude": "-19.020835", "country_code": "IS", "latitude": "64.963051", "resolution": "COUNTRY", "id": 4263794174}, {"name": "Armenia", "importance": 0.7405484301413071, "country": "Armenia", "alt_names": ["Hayastan"], "longitude": "45.038189", "country_code": "AM", "latitude": "40.069099", "resolution": "COUNTRY", "id": 4263794175}, {"name": "American Samoa", "importance": 0.6677219989658697, "country": "American Samoa", "alt_names": [], "longitude": "-170.132217", "country_code": "AS", "latitude": "-14.270972", "resolution": "COUNTRY", "id": 4263794176}]